{"data":{"stats":{"country":39,"total":174,"city":173,"fave":1,"want":1},"places":[{"city":"Salamanca","country":"Spain","iso":"ES","flags":["been"],"lat":40.964985,"lng":-5.664133,"name":"Salamanca, Spain","been":"been","lon":-5.664133},{"city":"Dortmund","country":"Germany","iso":"DE","flags":["been"],"lat":51.51494,"lng":7.453298,"name":"Dortmund, Germany","been":"been","lon":7.453298},{"city":"Frederikshavn","country":"Denmark","iso":"DK","flags":["been"],"lat":57.44707,"lng":10.530396,"name":"Frederikshavn, Denmark","been":"been","lon":10.530396},{"city":"Cologne","country":"Germany","iso":"DE","flags":["been"],"lat":50.939663,"lng":6.959839,"name":"Cologne, Germany","been":"been","lon":6.959839},{"city":"Kiev","country":"Ukraine","iso":"UA","flags":["been"],"lat":50.444885,"lng":30.536667,"name":"Kiev, Ukraine","been":"been","lon":30.536667},{"city":"Salta","country":"Argentina","iso":"AR","flags":["been"],"lat":-24.785955,"lng":-65.40985,"name":"Salta, Argentina","been":"been","lon":-65.40985},{"city":"Cork","country":"Ireland","iso":"IE","flags":["been"],"lat":51.891148,"lng":-8.474197,"name":"Cork, Ireland","been":"been","lon":-8.474197},{"city":"Livorno","country":"Italy","iso":"IT","flags":["been"],"lat":43.549717,"lng":10.31293,"name":"Livorno, Italy","been":"been","lon":10.31293},{"city":"Flensburg","country":"Germany","iso":"DE","flags":["been"],"lat":54.786343,"lng":9.4347,"name":"Flensburg, Germany","been":"been","lon":9.4347},{"city":"Furtwangen","country":"Germany","iso":"DE","flags":["been"],"lat":48.049057,"lng":8.199312,"name":"Furtwangen, Germany","been":"been","lon":8.199312},{"city":"Kiel","country":"Germany","iso":"DE","flags":["been"],"lat":54.32192,"lng":10.134516,"name":"Kiel, Germany","been":"been","lon":10.134516},{"city":"Florence","country":"Italy","iso":"IT","flags":["been"],"lat":43.767918,"lng":11.252379,"name":"Florence, Italy","been":"been","lon":11.252379},{"city":"Barcelona","country":"Spain","iso":"ES","flags":["been"],"lat":41.385597,"lng":2.169576,"name":"Barcelona, Spain","been":"been","lon":2.169576},{"city":"Lisbon","country":"Portugal","iso":"PT","flags":["been"],"lat":38.71211,"lng":-9.138085,"name":"Lisbon, Portugal","been":"been","lon":-9.138085},{"city":"Marseille","country":"France","iso":"FR","flags":["been"],"lat":43.2964,"lng":5.37,"name":"Marseille, France","been":"been","lon":5.37},{"city":"Datong","country":"China","iso":"CN","flags":["been"],"lat":40.098415,"lng":113.3034,"name":"Datong, China","been":"been","lon":113.3034},{"city":"New York City","country":"NY","iso":"","flags":["been"],"lat":40.713238,"lng":-74.00584,"name":"New York City, NY, USA","been":"been","lon":-74.00584},{"city":"Valencia","country":"Spain","iso":"ES","flags":["been"],"lat":39.473854,"lng":-0.377154,"name":"Valencia, Spain","been":"been","lon":-0.377154},{"city":"Catania","country":"Italy","iso":"IT","flags":["been"],"lat":37.508392,"lng":15.080838,"name":"Catania, Italy","been":"been","lon":15.080838},{"city":"La Serena","country":"Chile","iso":"CL","flags":["been"],"lat":-29.907751,"lng":-71.25772,"name":"La Serena, Chile","been":"been","lon":-71.25772},{"city":"Latour-de-Carol","country":"France","iso":"FR","flags":["been"],"lat":42.46494,"lng":1.88999,"name":"Latour-de-Carol, France","been":"been","lon":1.88999},{"city":"Warsaw","country":"Poland","iso":"PL","flags":["been"],"lat":52.2331,"lng":21.00794,"name":"Warsaw, Poland","been":"been","lon":21.00794},{"city":"Calais","country":"France","iso":"FR","flags":["been"],"lat":50.95326,"lng":1.854357,"name":"Calais, France","been":"been","lon":1.854357},{"city":"Rostock","country":"Germany","iso":"DE","flags":["been"],"lat":54.087986,"lng":12.13723,"name":"Rostock, Germany","been":"been","lon":12.13723},{"city":"Newcastle upon Tyne","country":"UK","iso":"GB","flags":["been"],"lat":54.972885,"lng":-1.618424,"name":"Newcastle upon Tyne, UK","been":"been","lon":-1.618424},{"city":"Renesse","country":"The Netherlands","iso":"NL","flags":["been"],"lat":51.73219,"lng":3.775164,"name":"Renesse, The Netherlands","been":"been","lon":3.775164},{"city":"Ohakune","country":"New Zealand","iso":"NZ","flags":["been"],"lat":-39.417824,"lng":175.39963,"name":"Ohakune, New Zealand","been":"been","lon":175.39963},{"city":"Fox Glacier","country":"New Zealand","iso":"NZ","flags":["been"],"lat":-43.46516,"lng":170.01765,"name":"Fox Glacier, New Zealand","been":"been","lon":170.01765},{"city":"Oswiecim","country":"Poland","iso":"PL","flags":["been"],"lat":50.036472,"lng":19.25247,"name":"Oswiecim, Poland","been":"been","lon":19.25247},{"city":"Cape Town Central","country":"South Africa","iso":"ZA","flags":["want"],"lat":-33.918163,"lng":18.424736,"name":"Cape Town Central, South Africa","been":"want","lon":18.424736},{"city":"Leipzig","country":"Germany","iso":"DE","flags":["been"],"lat":51.344887,"lng":12.386192,"name":"Leipzig, Germany","been":"been","lon":12.386192},{"city":"Olbia","country":"Italy","iso":"IT","flags":["been"],"lat":40.922207,"lng":9.5003,"name":"Olbia, Italy","been":"been","lon":9.5003},{"city":"Copenhagen","country":"Denmark","iso":"DK","flags":["been"],"lat":55.67502,"lng":12.580593,"name":"Copenhagen, Denmark","been":"been","lon":12.580593},{"city":"Coquimbo","country":"Chile","iso":"CL","flags":["been"],"lat":-29.957376,"lng":-71.33929,"name":"Coquimbo, Chile","been":"been","lon":-71.33929},{"city":"Bondi","country":"Australia","iso":"AU","flags":["been"],"lat":-33.895325,"lng":151.26826,"name":"Bondi, Australia","been":"been","lon":151.26826},{"city":"Madrid","country":"Spain","iso":"ES","flags":["been"],"lat":40.41471,"lng":-3.700708,"name":"Madrid, Spain","been":"been","lon":-3.700708},{"city":"Orosei","country":"Italy","iso":"IT","flags":["been"],"lat":40.378716,"lng":9.694828,"name":"Orosei, Italy","been":"been","lon":9.694828},{"city":"Ystad","country":"Sweden","iso":"SE","flags":["been"],"lat":55.42966,"lng":13.82041,"name":"Ystad, Sweden","been":"been","lon":13.82041},{"city":"Helsinki","country":"Finland","iso":"FI","flags":["been"],"lat":60.16798,"lng":24.940203,"name":"Helsinki, Finland","been":"been","lon":24.940203},{"city":"Cleveland","country":"OH","iso":"","flags":["been"],"lat":41.49958,"lng":-81.69382,"name":"Cleveland, OH, USA","been":"been","lon":-81.69382},{"city":"Vina del Mar","country":"Chile","iso":"CL","flags":["been"],"lat":-33.02315,"lng":-71.55738,"name":"Vina del Mar, Chile","been":"been","lon":-71.55738},{"city":"Shanghai","country":"China","iso":"CN","flags":["been"],"lat":31.234953,"lng":121.48737,"name":"Shanghai, China","been":"been","lon":121.48737},{"city":"Arcachon","country":"France","iso":"FR","flags":["been"],"lat":44.652786,"lng":-1.179532,"name":"Arcachon, France","been":"been","lon":-1.179532},{"city":"Montpellier","country":"France","iso":"FR","flags":["been"],"lat":43.606926,"lng":3.880531,"name":"Montpellier, France","been":"been","lon":3.880531},{"city":"Rome","country":"Italy","iso":"IT","flags":["been"],"lat":41.893623,"lng":12.495978,"name":"Rome, Italy","been":"been","lon":12.495978},{"city":"Sarajevo","country":"Bosnia and Herzegovina","iso":"BA","flags":["been"],"lat":43.86231,"lng":18.432571,"name":"Sarajevo, Bosnia and Herzegovina","been":"been","lon":18.432571},{"city":"Suzhou","country":"China","iso":"CN","flags":["been"],"lat":31.26269,"lng":121.07674,"name":"Suzhou, China","been":"been","lon":121.07674},{"city":"Helgoland","country":"Germany","iso":"DE","flags":["been"],"lat":54.181698,"lng":7.888681,"name":"Helgoland, Germany","been":"been","lon":7.888681},{"city":"Mostar","country":"Bosnia and Herzegovina","iso":"BA","flags":["been"],"lat":43.338097,"lng":17.810297,"name":"Mostar, Bosnia and Herzegovina","been":"been","lon":17.810297},{"city":"Beijing","country":"China","iso":"CN","flags":["been"],"lat":39.909336,"lng":116.39452,"name":"Beijing, China","been":"been","lon":116.39452},{"city":"Augsburg","country":"Germany","iso":"DE","flags":["been"],"lat":48.369976,"lng":10.88333,"name":"Augsburg, Germany","been":"been","lon":10.88333},{"city":"Brussels","country":"Belgium","iso":"BE","flags":["been"],"lat":50.849632,"lng":4.351959,"name":"Brussels, Belgium","been":"been","lon":4.351959},{"city":"Monte-Carlo","country":"Monaco","iso":"MC","flags":["been"],"lat":43.740532,"lng":7.425427,"name":"Monte-Carlo, Monaco","been":"been","lon":7.425427},{"city":"Nuremberg","country":"Germany","iso":"DE","flags":["been"],"lat":49.446163,"lng":11.07039,"name":"Nuremberg, Germany","been":"been","lon":11.07039},{"city":"Stockholm","country":"Sweden","iso":"SE","flags":["been"],"lat":59.330135,"lng":18.06151,"name":"Stockholm, Sweden","been":"been","lon":18.06151},{"city":"Dresden","country":"Germany","iso":"DE","flags":["been"],"lat":51.050453,"lng":13.73823,"name":"Dresden, Germany","been":"been","lon":13.73823},{"city":"Vatican City","country":"Vatican City","iso":"VA","flags":["been"],"lat":41.90295,"lng":12.453549,"name":"Vatican City, Vatican City","been":"been","lon":12.453549},{"city":"Munich","country":"Germany","iso":"DE","flags":["been"],"lat":48.133827,"lng":11.548443,"name":"Munich, Germany","been":"been","lon":11.548443},{"city":"Vaxjo","country":"Sweden","iso":"SE","flags":["been"],"lat":56.879345,"lng":14.799583,"name":"Vaxjo, Sweden","been":"been","lon":14.799583},{"city":"Greymouth","country":"New Zealand","iso":"NZ","flags":["been"],"lat":-42.450237,"lng":171.20314,"name":"Greymouth, New Zealand","been":"been","lon":171.20314},{"city":"Playa de Palma","country":"Spain","iso":"ES","flags":["been"],"lat":39.525715,"lng":2.73611,"name":"Playa de Palma, Spain","been":"been","lon":2.73611},{"city":"Kalmar","country":"Sweden","iso":"SE","flags":["been"],"lat":56.661633,"lng":16.362715,"name":"Kalmar, Sweden","been":"been","lon":16.362715},{"city":"Liverpool","country":"UK","iso":"GB","flags":["been"],"lat":53.406662,"lng":-2.974251,"name":"Liverpool, UK","been":"been","lon":-2.974251},{"city":"Kaikoura","country":"New Zealand","iso":"NZ","flags":["been"],"lat":-42.40946,"lng":173.68507,"name":"Kaikoura, New Zealand","been":"been","lon":173.68507},{"city":"London","country":"UK","iso":"GB","flags":["been"],"lat":51.51924,"lng":-0.096654,"name":"London, UK","been":"been","lon":-0.096654},{"city":"Listvyanka","country":"Russia","iso":"RU","flags":["been"],"lat":51.847084,"lng":104.87313,"name":"Listvyanka, Russia","been":"been","lon":104.87313},{"city":"Tallinn","country":"Estonia","iso":"EE","flags":["been"],"lat":59.4382,"lng":24.75423,"name":"Tallinn, Estonia","been":"been","lon":24.75423},{"city":"Mount Maunganui","country":"New Zealand","iso":"NZ","flags":["been"],"lat":-37.63952,"lng":176.18474,"name":"Mount Maunganui, New Zealand","been":"been","lon":176.18474},{"city":"Bad Frankenhausen","country":"Germany","iso":"DE","flags":["been"],"lat":51.3502,"lng":11.095633,"name":"Bad Frankenhausen, Germany","been":"been","lon":11.095633},{"city":"Vimmerby","country":"Sweden","iso":"SE","flags":["been"],"lat":57.6661,"lng":15.855073,"name":"Vimmerby, Sweden","been":"been","lon":15.855073},{"city":"Irkutsk","country":"Russia","iso":"RU","flags":["been"],"lat":52.29778,"lng":104.29639,"name":"Irkutsk, Russia","been":"been","lon":104.29639},{"city":"Bastia","country":"France","iso":"FR","flags":["been"],"lat":42.701027,"lng":9.450283,"name":"Bastia, France","been":"been","lon":9.450283},{"city":"Castiglione Della Pescaia","country":"Italy","iso":"IT","flags":["been"],"lat":42.763542,"lng":10.880054,"name":"Castiglione Della Pescaia, Italy","been":"been","lon":10.880054},{"city":"Muenster","country":"Germany","iso":"DE","flags":["been"],"lat":51.96149,"lng":7.622354,"name":"Muenster, Germany","been":"been","lon":7.622354},{"city":"Amsterdam","country":"The Netherlands","iso":"NL","flags":["been"],"lat":52.37,"lng":4.89,"name":"Amsterdam, The Netherlands","been":"been","lon":4.89},{"city":"Paris","country":"France","iso":"FR","flags":["been"],"lat":48.857037,"lng":2.349401,"name":"Paris, France","been":"been","lon":2.349401},{"city":"The Hague","country":"The Netherlands","iso":"NL","flags":["been"],"lat":52.076355,"lng":4.310603,"name":"The Hague, The Netherlands","been":"been","lon":4.310603},{"city":"Naples","country":"Italy","iso":"IT","flags":["been"],"lat":40.840416,"lng":14.252355,"name":"Naples, Italy","been":"been","lon":14.252355},{"city":"Rotterdam","country":"The Netherlands","iso":"NL","flags":["been"],"lat":51.920525,"lng":4.480866,"name":"Rotterdam, The Netherlands","been":"been","lon":4.480866},{"city":"Portsmouth","country":"UK","iso":"GB","flags":["been"],"lat":50.802788,"lng":-1.086526,"name":"Portsmouth, UK","been":"been","lon":-1.086526},{"city":"Picton","country":"New Zealand","iso":"NZ","flags":["been"],"lat":-41.28873,"lng":174.0072,"name":"Picton, New Zealand","been":"been","lon":174.0072},{"city":"Zurich","country":"Switzerland","iso":"CH","flags":["been"],"lat":47.374664,"lng":8.539639,"name":"Zurich, Switzerland","been":"been","lon":8.539639},{"city":"Moscow","country":"Russia","iso":"RU","flags":["been"],"lat":55.751865,"lng":37.622437,"name":"Moscow, Russia","been":"been","lon":37.622437},{"city":"Lyon","country":"France","iso":"FR","flags":["been"],"lat":45.755955,"lng":4.832282,"name":"Lyon, France","been":"been","lon":4.832282},{"city":"Dubrovnik","country":"Croatia","iso":"HR","flags":["been"],"lat":42.653934,"lng":18.079966,"name":"Dubrovnik, Croatia","been":"been","lon":18.079966},{"city":"Akaroa","country":"New Zealand","iso":"NZ","flags":["been"],"lat":-43.797348,"lng":172.97108,"name":"Akaroa, New Zealand","been":"been","lon":172.97108},{"city":"Schierke","country":"Germany","iso":"DE","flags":["been"],"lat":51.764328,"lng":10.665998,"name":"Schierke, Germany","been":"been","lon":10.665998},{"city":"Dublin","country":"Ireland","iso":"IE","flags":["been"],"lat":53.345966,"lng":-6.25341,"name":"Dublin, Ireland","been":"been","lon":-6.25341},{"city":"Hot Water Beach","country":"New Zealand","iso":"NZ","flags":["been"],"lat":-36.88819,"lng":175.8202,"name":"Hot Water Beach, New Zealand","been":"been","lon":175.8202},{"city":"Malmo","country":"Sweden","iso":"SE","flags":["been"],"lat":55.597195,"lng":12.998863,"name":"Malmo, Sweden","been":"been","lon":12.998863},{"city":"Jurmala","country":"Latvia","iso":"LV","flags":["been"],"lat":56.960304,"lng":23.705057,"name":"Jurmala, Latvia","been":"been","lon":23.705057},{"city":"Galway","country":"Ireland","iso":"IE","flags":["been"],"lat":53.27815,"lng":-9.050388,"name":"Galway, Ireland","been":"been","lon":-9.050388},{"city":"San Pedro de Atacama","country":"Chile","iso":"CL","flags":["been"],"lat":-22.910463,"lng":-68.19538,"name":"San Pedro de Atacama, Chile","been":"been","lon":-68.19538},{"city":"Riga","country":"Latvia","iso":"LV","flags":["been"],"lat":56.94834,"lng":24.107779,"name":"Riga, Latvia","been":"been","lon":24.107779},{"city":"Derry","country":"UK","iso":"GB","flags":["been"],"lat":54.993717,"lng":-7.319538,"name":"Derry, UK","been":"been","lon":-7.319538},{"city":"Toulouse","country":"France","iso":"FR","flags":["been"],"lat":43.603947,"lng":1.44303,"name":"Toulouse, France","been":"been","lon":1.44303},{"city":"Buenos Aires","country":"Argentina","iso":"AR","flags":["been"],"lat":-34.58881,"lng":-58.39562,"name":"Buenos Aires, Argentina","been":"been","lon":-58.39562},{"city":"Stuttgart","country":"Germany","iso":"DE","flags":["been"],"lat":48.781322,"lng":9.183353,"name":"Stuttgart, Germany","been":"been","lon":9.183353},{"city":"Chicago","country":"IL","iso":"","flags":["been"],"lat":41.878407,"lng":-87.62568,"name":"Chicago, IL, USA","been":"been","lon":-87.62568},{"city":"Bergen","country":"Norway","iso":"NO","flags":["been"],"lat":60.38918,"lng":5.331452,"name":"Bergen, Norway","been":"been","lon":5.331452},{"city":"Mannheim","country":"Germany","iso":"DE","flags":["been"],"lat":49.489597,"lng":8.464398,"name":"Mannheim, Germany","been":"been","lon":8.464398},{"city":"San Sebastian - Donostia","country":"Spain","iso":"ES","flags":["been"],"lat":43.317516,"lng":-1.975921,"name":"San Sebastian - Donostia, Spain","been":"been","lon":-1.975921},{"city":"Birmingham","country":"UK","iso":"GB","flags":["been"],"lat":52.48399,"lng":-1.888948,"name":"Birmingham, UK","been":"been","lon":-1.888948},{"city":"Lagos","country":"Portugal","iso":"PT","flags":["been"],"lat":37.105007,"lng":-8.67513,"name":"Lagos, Portugal","been":"been","lon":-8.67513},{"city":"Lille","country":"France","iso":"FR","flags":["been"],"lat":50.636906,"lng":3.065442,"name":"Lille, France","been":"been","lon":3.065442},{"city":"Bilbao","country":"Spain","iso":"ES","flags":["been"],"lat":43.262074,"lng":-2.931721,"name":"Bilbao, Spain","been":"been","lon":-2.931721},{"city":"Avignon","country":"France","iso":"FR","flags":["been"],"lat":43.947704,"lng":4.806896,"name":"Avignon, France","been":"been","lon":4.806896},{"city":"Potsdam","country":"Germany","iso":"DE","flags":["been"],"lat":52.402355,"lng":13.072332,"name":"Potsdam, Germany","been":"been","lon":13.072332},{"city":"Hamburg","country":"Germany","iso":"DE","flags":["been"],"lat":53.55556,"lng":10.013171,"name":"Hamburg, Germany","been":"been","lon":10.013171},{"city":"Airlie Beach","country":"Australia","iso":"AU","flags":["been"],"lat":-20.269703,"lng":148.71977,"name":"Airlie Beach, Australia","been":"been","lon":148.71977},{"city":"Rotorua","country":"New Zealand","iso":"NZ","flags":["been"],"lat":-38.136536,"lng":176.25145,"name":"Rotorua, New Zealand","been":"been","lon":176.25145},{"city":"Taupo","country":"New Zealand","iso":"NZ","flags":["been"],"lat":-38.689762,"lng":176.07594,"name":"Taupo, New Zealand","been":"been","lon":176.07594},{"city":"Istanbul","country":"Turkey","iso":"TR","flags":["been"],"lat":41.00986,"lng":28.95707,"name":"Istanbul, Turkey","been":"been","lon":28.95707},{"city":"Santiago","country":"Chile","iso":"CL","flags":["been"],"lat":-33.43771,"lng":-70.64779,"name":"Santiago, Chile","been":"been","lon":-70.64779},{"city":"Katherine","country":"Australia","iso":"AU","flags":["been"],"lat":-14.466624,"lng":132.26544,"name":"Katherine, Australia","been":"been","lon":132.26544},{"city":"Wellington","country":"New Zealand","iso":"NZ","flags":["been"],"lat":-41.286087,"lng":174.77695,"name":"Wellington, New Zealand","been":"been","lon":174.77695},{"city":"Valparaiso","country":"Chile","iso":"CL","flags":["been"],"lat":-33.03716,"lng":-71.6283,"name":"Valparaiso, Chile","been":"been","lon":-71.6283},{"city":"Blenheim","country":"New Zealand","iso":"NZ","flags":["been"],"lat":-41.51163,"lng":173.95653,"name":"Blenheim, New Zealand","been":"been","lon":173.95653},{"city":"Christchurch","country":"New Zealand","iso":"NZ","flags":["been"],"lat":-43.532024,"lng":172.63718,"name":"Christchurch, New Zealand","been":"been","lon":172.63718},{"city":"Belfast","country":"UK","iso":"GB","flags":["been"],"lat":54.59679,"lng":-5.930921,"name":"Belfast, UK","been":"been","lon":-5.930921},{"city":"Vilnius","country":"Lithuania","iso":"LT","flags":["been"],"lat":54.690937,"lng":25.276403,"name":"Vilnius, Lithuania","been":"been","lon":25.276403},{"city":"Freiburg im Breisgau","country":"Germany","iso":"DE","flags":["been"],"lat":47.998714,"lng":7.851038,"name":"Freiburg im Breisgau, Germany","been":"been","lon":7.851038},{"city":"Zakopane","country":"Poland","iso":"PL","flags":["been"],"lat":49.295242,"lng":19.950949,"name":"Zakopane, Poland","been":"been","lon":19.950949},{"city":"Kaliningrad","country":"Russia","iso":"RU","flags":["been"],"lat":54.71152,"lng":20.508625,"name":"Kaliningrad, Russia","been":"been","lon":20.508625},{"city":"Oslo","country":"Norway","iso":"NO","flags":["been"],"lat":59.91173,"lng":10.750844,"name":"Oslo, Norway","been":"been","lon":10.750844},{"city":"Hanmer Springs","country":"New Zealand","iso":"NZ","flags":["been"],"lat":-42.51894,"lng":172.82904,"name":"Hanmer Springs, New Zealand","been":"been","lon":172.82904},{"city":"Bremen","country":"Germany","iso":"DE","flags":["been"],"lat":53.083763,"lng":8.819797,"name":"Bremen, Germany","been":"been","lon":8.819797},{"city":"Nykoping","country":"Sweden","iso":"SE","flags":["been"],"lat":58.752487,"lng":17.007303,"name":"Nykoping, Sweden","been":"been","lon":17.007303},{"city":"San Francisco","country":"CA","iso":"","flags":["been"],"lat":37.778934,"lng":-122.41579,"name":"San Francisco, CA, USA","been":"been","lon":-122.41579},{"city":"Berlin","country":"Germany","iso":"DE","flags":["been"],"lat":52.51959,"lng":13.397209,"name":"Berlin, Germany","been":"been","lon":13.397209},{"city":"Mariestad","country":"Sweden","iso":"SE","flags":["been"],"lat":58.710266,"lng":13.822889,"name":"Mariestad, Sweden","been":"been","lon":13.822889},{"city":"Colonia del Sacramento","country":"Uruguay","iso":"UY","flags":["been"],"lat":-34.466022,"lng":-57.835003,"name":"Colonia del Sacramento, Uruguay","been":"been","lon":-57.835003},{"city":"Seville","country":"Spain","iso":"ES","flags":["been"],"lat":37.383396,"lng":-5.990674,"name":"Seville, Spain","been":"been","lon":-5.990674},{"city":"Heidelberg","country":"Germany","iso":"DE","flags":["been"],"lat":49.40902,"lng":8.697485,"name":"Heidelberg, Germany","been":"been","lon":8.697485},{"city":"Tokyo","country":"Japan","iso":"JP","flags":["been"],"lat":35.680565,"lng":139.759,"name":"Tokyo, Japan","been":"been","lon":139.759},{"city":"Skagen","country":"Denmark","iso":"DK","flags":["been"],"lat":57.72172,"lng":10.58197,"name":"Skagen, Denmark","been":"been","lon":10.58197},{"city":"Queenstown","country":"New Zealand","iso":"NZ","flags":["been"],"lat":-45.03106,"lng":168.66235,"name":"Queenstown, New Zealand","been":"been","lon":168.66235},{"city":"Te Anau","country":"New Zealand","iso":"NZ","flags":["been"],"lat":-45.404236,"lng":167.71991,"name":"Te Anau, New Zealand","been":"been","lon":167.71991},{"city":"Prague","country":"Czech Republic","iso":"CZ","flags":["been"],"lat":50.076847,"lng":14.427817,"name":"Prague, Czech Republic","been":"been","lon":14.427817},{"city":"Lake Tekapo","country":"New Zealand","iso":"NZ","flags":["been"],"lat":-44.005653,"lng":170.4839,"name":"Lake Tekapo, New Zealand","been":"been","lon":170.4839},{"city":"Strasbourg","country":"France","iso":"FR","flags":["been"],"lat":48.583153,"lng":7.7636,"name":"Strasbourg, France","been":"been","lon":7.7636},{"city":"Hannover","country":"Germany","iso":"DE","flags":["been","fave"],"lat":52.371662,"lng":9.735982,"name":"Hannover, Germany","been":"been,fave","lon":9.735982},{"city":"Cordoba","country":"Argentina","iso":"AR","flags":["been"],"lat":-31.40833,"lng":-64.18995,"name":"Cordoba, Argentina","been":"been","lon":-64.18995},{"city":"Brindisi","country":"Italy","iso":"IT","flags":["been"],"lat":40.62894,"lng":17.93319,"name":"Brindisi, Italy","been":"been","lon":17.93319},{"city":"Basel","country":"Switzerland","iso":"CH","flags":["been"],"lat":47.56868,"lng":7.587512,"name":"Basel, Switzerland","been":"been","lon":7.587512},{"city":"Bordeaux","country":"France","iso":"FR","flags":["been"],"lat":44.838123,"lng":-0.577102,"name":"Bordeaux, France","been":"been","lon":-0.577102},{"city":"Wanaka","country":"New Zealand","iso":"NZ","flags":["been"],"lat":-44.697247,"lng":169.13551,"name":"Wanaka, New Zealand","been":"been","lon":169.13551},{"city":"Franz Josef","country":"New Zealand","iso":"NZ","flags":["been"],"lat":-43.38905,"lng":170.18188,"name":"Franz Josef, New Zealand","been":"been","lon":170.18188},{"city":"Nice","country":"France","iso":"FR","flags":["been"],"lat":43.700638,"lng":7.276729,"name":"Nice, France","been":"been","lon":7.276729},{"city":"Esbjerg","country":"Denmark","iso":"DK","flags":["been"],"lat":55.466606,"lng":8.452057,"name":"Esbjerg, Denmark","been":"been","lon":8.452057},{"city":"Gothenburg","country":"Sweden","iso":"SE","flags":["been"],"lat":57.70382,"lng":11.972486,"name":"Gothenburg, Sweden","been":"been","lon":11.972486},{"city":"Venice","country":"Italy","iso":"IT","flags":["been"],"lat":45.439087,"lng":12.323647,"name":"Venice, Italy","been":"been","lon":12.323647},{"city":"Yokohama","country":"Japan","iso":"JP","flags":["been"],"lat":35.454258,"lng":139.56802,"name":"Yokohama, Japan","been":"been","lon":139.56802},{"city":"Tarragona","country":"Spain","iso":"ES","flags":["been"],"lat":41.116333,"lng":1.248222,"name":"Tarragona, Spain","been":"been","lon":1.248222},{"city":"Flam","country":"Norway","iso":"NO","flags":["been"],"lat":60.8333,"lng":7.11667,"name":"Flam, Norway","been":"been","lon":7.11667},{"city":"Hallig Hooge","country":"Germany","iso":"DE","flags":["been"],"lat":54.56667,"lng":8.55,"name":"Hallig Hooge, Germany","been":"been","lon":8.55},{"city":"Ulaanbaatar","country":"Mongolia","iso":"MN","flags":["been"],"lat":47.915348,"lng":106.89164,"name":"Ulaanbaatar, Mongolia","been":"been","lon":106.89164},{"city":"Vienna","country":"Austria","iso":"AT","flags":["been"],"lat":48.208862,"lng":16.372383,"name":"Vienna, Austria","been":"been","lon":16.372383},{"city":"Krakow","country":"Poland","iso":"PL","flags":["been"],"lat":50.05449,"lng":19.948544,"name":"Krakow, Poland","been":"been","lon":19.948544},{"city":"Manchester","country":"UK","iso":"GB","flags":["been"],"lat":53.476948,"lng":-2.247661,"name":"Manchester, UK","been":"been","lon":-2.247661},{"city":"Patras","country":"Greece","iso":"GR","flags":["been"],"lat":38.24444,"lng":21.73256,"name":"Patras, Greece","been":"been","lon":21.73256},{"city":"Athens","country":"Greece","iso":"GR","flags":["been"],"lat":37.97698,"lng":23.721302,"name":"Athens, Greece","been":"been","lon":23.721302},{"city":"Sydney","country":"Australia","iso":"AU","flags":["been"],"lat":-33.870037,"lng":151.20955,"name":"Sydney, Australia","been":"been","lon":151.20955},{"city":"Alice Springs","country":"Australia","iso":"AU","flags":["been"],"lat":-23.699787,"lng":133.8833,"name":"Alice Springs, Australia","been":"been","lon":133.8833},{"city":"Darwin","country":"Australia","iso":"AU","flags":["been"],"lat":-12.460347,"lng":130.84166,"name":"Darwin, Australia","been":"been","lon":130.84166},{"city":"Hirtshals","country":"Denmark","iso":"DK","flags":["been"],"lat":57.58595,"lng":9.9614,"name":"Hirtshals, Denmark","been":"been","lon":9.9614},{"city":"Bratislava","country":"Slovakia","iso":"SK","flags":["been"],"lat":48.149662,"lng":17.108503,"name":"Bratislava, Slovakia","been":"been","lon":17.108503},{"city":"Brisbane","country":"Australia","iso":"AU","flags":["been"],"lat":-27.4681,"lng":153.02197,"name":"Brisbane, Australia","been":"been","lon":153.02197},{"city":"Perth","country":"Australia","iso":"AU","flags":["been"],"lat":-31.955471,"lng":115.86148,"name":"Perth, Australia","been":"been","lon":115.86148},{"city":"Hangzhou","country":"China","iso":"CN","flags":["been"],"lat":30.166842,"lng":120.26485,"name":"Hangzhou, China","been":"been","lon":120.26485},{"city":"Los Angeles","country":"CA","iso":"","flags":["been"],"lat":34.05106,"lng":-118.23284,"name":"Los Angeles, CA, USA","been":"been","lon":-118.23284},{"city":"Budapest","country":"Hungary","iso":"HU","flags":["been"],"lat":47.49346,"lng":19.0507,"name":"Budapest, Hungary","been":"been","lon":19.0507},{"city":"Auckland","country":"New Zealand","iso":"NZ","flags":["been"],"lat":-36.849407,"lng":174.76103,"name":"Auckland, New Zealand","been":"been","lon":174.76103},{"city":"Luneburg","country":"Germany","iso":"DE","flags":["been"],"lat":53.247498,"lng":10.410848,"name":"Luneburg, Germany","been":"been","lon":10.410848}],"username":"christianhaller","lang":"en","avatar":"https://media-cdn.tripadvisor.com/media/photo-l/01/d4/1c/5a/facebook-avatar.jpg","date":"2016-06-27T20:30:15.442Z","kml":"https://s3-us-west-2.amazonaws.com/stage.download-your-travelmap.christianhaller.com/kml/christianhaller.kml","csv":"https://s3-us-west-2.amazonaws.com/stage.download-your-travelmap.christianhaller.com/csv/christianhaller.csv","buildNumber":""},"cached":true,"env":"stage üêà"}